{
  "restaurants": [
    {
      "id": "wuhan_reganmian",
      "city": "武汉",
      "name": "蔡林记(户部巷店)",
      "type": "小吃",
      "avg_cost_per_person": 20,
      "must_try": ["热干面", "豆皮", "蛋酒"],
      "tags": ["美食", "小吃", "老字号"],
      "address": "武汉市武昌区户部巷28号",
      "lat": 30.5470,
      "lng": 114.3060,
      "rating": 4.5
    },
    {
      "id": "wuhan_doupi",
      "city": "武汉",
      "name": "老通城豆皮(吉庆街店)",
      "type": "小吃",
      "avg_cost_per_person": 25,
      "must_try": ["三鲜豆皮", "虾仁豆皮"],
      "tags": ["美食", "小吃", "老字号"],
      "address": "武汉市江岸区吉庆街",
      "lat": 30.5900,
      "lng": 114.2950,
      "rating": 4.6
    },
    {
      "id": "wuhan_yabotou",
      "city": "武汉",
      "name": "精武鸭脖(首义路店)",
      "type": "小吃",
      "avg_cost_per_person": 35,
      "must_try": ["鸭脖", "鸭锁骨", "鸭翅"],
      "tags": ["美食", "小吃", "辣味"],
      "address": "武汉市武昌区首义路",
      "lat": 30.5350,
      "lng": 114.3100,
      "rating": 4.3
    },
    {
      "id": "wuhan_xiaolongxia",
      "city": "武汉",
      "name": "巴厘龙虾(万松园店)",
      "type": "正餐",
      "avg_cost_per_person": 120,
      "must_try": ["油焖大虾", "清蒸小龙虾", "蒜蓉虾"],
      "tags": ["美食", "海鲜", "夜市"],
      "address": "武汉市江汉区万松园路",
      "lat": 30.5950,
      "lng": 114.2800,
      "rating": 4.4
    },
    {
      "id": "wuhan_huaiyangcai",
      "city": "武汉",
      "name": "湖锦酒楼(八一路店)",
      "type": "正餐",
      "avg_cost_per_person": 100,
      "must_try": ["辣得跳", "武昌鱼", "排骨藕汤"],
      "tags": ["美食", "湖北菜", "聚餐"],
      "address": "武汉市武昌区八一路",
      "lat": 30.5400,
      "lng": 114.3500,
      "rating": 4.5
    },
    {
      "id": "wuhan_yexiao",
      "city": "武汉",
      "name": "吉庆街夜市",
      "type": "夜市",
      "avg_cost_per_person": 60,
      "must_try": ["烧烤", "田螺", "藕带"],
      "tags": ["美食", "夜市", "小吃"],
      "address": "武汉市江岸区吉庆街",
      "lat": 30.5900,
      "lng": 114.2950,
      "rating": 4.2
    },
    {
      "id": "xian_paomo",
      "city": "西安",
      "name": "老米家大雨泡馍(总店)",
      "type": "小吃",
      "avg_cost_per_person": 35,
      "must_try": ["羊肉泡馍", "牛肉泡馍", "糖蒜"],
      "tags": ["美食", "小吃", "老字号"],
      "address": "西安市莲湖区北广济街",
      "lat": 34.2630,
      "lng": 108.9380,
      "rating": 4.5
    },
    {
      "id": "xian_roujiamo",
      "city": "西安",
      "name": "子午路张记肉夹馍",
      "type": "小吃",
      "avg_cost_per_person": 20,
      "must_try": ["肉夹馍", "凉皮", "冰峰"],
      "tags": ["美食", "小吃", "老字号"],
      "address": "西安市雁塔区子午路",
      "lat": 34.2250,
      "lng": 108.9450,
      "rating": 4.6
    },
    {
      "id": "xian_guantangbao",
      "city": "西安",
      "name": "贾三灌汤包子馆",
      "type": "小吃",
      "avg_cost_per_person": 30,
      "must_try": ["牛肉灌汤包", "羊肉灌汤包", "八宝粥"],
      "tags": ["美食", "小吃", "老字号"],
      "address": "西安市莲湖区回民街",
      "lat": 34.2620,
      "lng": 108.9410,
      "rating": 4.4
    },
    {
      "id": "xian_shuipen",
      "city": "西安",
      "name": "长安大牌档",
      "type": "正餐",
      "avg_cost_per_person": 80,
      "must_try": ["葫芦鸡", "毛笔酥", "麻将十三幺"],
      "tags": ["美食", "陕菜", "网红"],
      "address": "西安市雁塔区小寨赛格",
      "lat": 34.2250,
      "lng": 108.9500,
      "rating": 4.3
    },
    {
      "id": "xian_biangbiang",
      "city": "西安",
      "name": "老李家biangbiang面",
      "type": "小吃",
      "avg_cost_per_person": 25,
      "must_try": ["biangbiang面", "油泼面", "臊子面"],
      "tags": ["美食", "面食", "老字号"],
      "address": "西安市碑林区钟楼附近",
      "lat": 34.2610,
      "lng": 108.9430,
      "rating": 4.5
    },
    {
      "id": "xian_yexiao",
      "city": "西安",
      "name": "永兴坊非遗美食街",
      "type": "夜市",
      "avg_cost_per_person": 50,
      "must_try": ["摔碗酒", "子长煎饼", "柞水洋芋糍粑"],
      "tags": ["美食", "夜市", "文化"],
      "address": "西安市新城区东新街",
      "lat": 34.2680,
      "lng": 108.9600,
      "rating": 4.3
    },
    {
      "id": "chengdu_hotpot",
      "city": "成都",
      "name": "小龙坎老火锅(春熙路店)",
      "type": "正餐",
      "avg_cost_per_person": 100,
      "must_try": ["毛肚", "鸭肠", "黄喉", "冰粉"],
      "tags": ["美食", "火锅", "网红"],
      "address": "成都市锦江区春熙路",
      "lat": 30.6580,
      "lng": 104.0820,
      "rating": 4.4
    },
    {
      "id": "chengdu_chuanchuan",
      "city": "成都",
      "name": "冒椒火辣(奎星楼店)",
      "type": "小吃",
      "avg_cost_per_person": 45,
      "must_try": ["串串香", "兔腰", "脑花"],
      "tags": ["美食", "串串", "辣味"],
      "address": "成都市青羊区奎星楼街",
      "lat": 30.6650,
      "lng": 104.0550,
      "rating": 4.5
    },
    {
      "id": "chengdu_dandan",
      "city": "成都",
      "name": "陈麻婆豆腐(骡马市店)",
      "type": "正餐",
      "avg_cost_per_person": 60,
      "must_try": ["麻婆豆腐", "宫保鸡丁", "夫妻肺片"],
      "tags": ["美食", "川菜", "老字号"],
      "address": "成都市青羊区西御街",
      "lat": 30.6600,
      "lng": 104.0600,
      "rating": 4.6
    },
    {
      "id": "chengdu_tianfu",
      "city": "成都",
      "name": "夫妻肺片(总店)",
      "type": "小吃",
      "avg_cost_per_person": 40,
      "must_try": ["夫妻肺片", "担担面", "钟水饺"],
      "tags": ["美食", "小吃", "老字号"],
      "address": "成都市锦江区总府路",
      "lat": 30.6570,
      "lng": 104.0750,
      "rating": 4.5
    },
    {
      "id": "chengdu_tea",
      "city": "成都",
      "name": "鹤鸣茶社(人民公园店)",
      "type": "茶馆",
      "avg_cost_per_person": 30,
      "must_try": ["盖碗茶", "瓜子", "采耳"],
      "tags": ["美食", "茶馆", "文化"],
      "address": "成都市青羊区少城路12号",
      "lat": 30.6620,
      "lng": 104.0550,
      "rating": 4.6
    },
    {
      "id": "chengdu_longchaoshou",
      "city": "成都",
      "name": "龙抄手(春熙路总店)",
      "type": "小吃",
      "avg_cost_per_person": 25,
      "must_try": ["红油抄手", "原汤抄手", "钟水饺"],
      "tags": ["美食", "小吃", "老字号"],
      "address": "成都市锦江区春熙路南段",
      "lat": 30.6560,
      "lng": 104.0800,
      "rating": 4.3
    },
    {
      "id": "beijing_kaoya",
      "city": "北京",
      "name": "全聚德(和平门店)",
      "type": "正餐",
      "avg_cost_per_person": 200,
      "must_try": ["北京烤鸭", "鸭架汤", "荷叶饼"],
      "tags": ["美食", "烤鸭", "老字号"],
      "address": "北京市西城区前门西大街",
      "lat": 39.9000,
      "lng": 116.3950,
      "rating": 4.4
    },
    {
      "id": "beijing_zhajiang",
      "city": "北京",
      "name": "海碗居(增光路店)",
      "type": "正餐",
      "avg_cost_per_person": 50,
      "must_try": ["炸酱面", "豆汁", "焦圈"],
      "tags": ["美食", "京味", "老字号"],
      "address": "北京市海淀区增光路",
      "lat": 39.9230,
      "lng": 116.3400,
      "rating": 4.3
    },
    {
      "id": "beijing_huoguo",
      "city": "北京",
      "name": "铜锅涮肉(东来顺)",
      "type": "正餐",
      "avg_cost_per_person": 120,
      "must_try": ["涮羊肉", "麻酱烧饼", "糖蒜"],
      "tags": ["美食", "涮肉", "老字号"],
      "address": "北京市东城区王府井大街",
      "lat": 39.9100,
      "lng": 116.4100,
      "rating": 4.5
    },
    {
      "id": "beijing_xiaochi",
      "city": "北京",
      "name": "护国寺小吃(护国寺总店)",
      "type": "小吃",
      "avg_cost_per_person": 30,
      "must_try": ["豌豆黄", "驴打滚", "艾窝窝"],
      "tags": ["美食", "小吃", "老字号"],
      "address": "北京市西城区护国寺大街",
      "lat": 39.9300,
      "lng": 116.3700,
      "rating": 4.2
    },
    {
      "id": "beijing_bingtanghulu",
      "city": "北京",
      "name": "南锣鼓巷文宇奶酪",
      "type": "小吃",
      "avg_cost_per_person": 25,
      "must_try": ["原味奶酪", "红豆双皮奶", "酸梅汤"],
      "tags": ["美食", "甜品", "网红"],
      "address": "北京市东城区南锣鼓巷",
      "lat": 39.9320,
      "lng": 116.4030,
      "rating": 4.3
    },
    {
      "id": "beijing_yexiao",
      "city": "北京",
      "name": "簋街夜市",
      "type": "夜市",
      "avg_cost_per_person": 100,
      "must_try": ["麻辣小龙虾", "烤鱼", "烤串"],
      "tags": ["美食", "夜市", "辣味"],
      "address": "北京市东城区东直门内大街",
      "lat": 39.9350,
      "lng": 116.4300,
      "rating": 4.4
    },
    {
      "id": "hangzhou_benbang",
      "city": "杭州",
      "name": "楼外楼(孤山路店)",
      "type": "正餐",
      "avg_cost_per_person": 150,
      "must_try": ["西湖醋鱼", "东坡肉", "龙井虾仁"],
      "tags": ["美食", "杭帮菜", "老字号"],
      "address": "杭州市西湖区孤山路30号",
      "lat": 30.2580,
      "lng": 116.4100,
      "rating": 4.4
    },
    {
      "id": "hangzhou_xiaolong",
      "city": "杭州",
      "name": "知味观(湖滨总店)",
      "type": "小吃",
      "avg_cost_per_person": 40,
      "must_try": ["小笼包", "猫耳朵", "片儿川"],
      "tags": ["美食", "小吃", "老字号"],
      "address": "杭州市上城区仁和路83号",
      "lat": 30.2550,
      "lng": 120.1650,
      "rating": 4.5
    },
    {
      "id": "hangzhou_tea_cuisine",
      "city": "杭州",
      "name": "绿茶餐厅(龙井路店)",
      "type": "正餐",
      "avg_cost_per_person": 80,
      "must_try": ["面包诱惑", "绿茶烤鸡", "石锅蛙"],
      "tags": ["美食", "杭帮菜", "网红"],
      "address": "杭州市西湖区龙井路",
      "lat": 30.2450,
      "lng": 120.1250,
      "rating": 4.3
    },
    {
      "id": "hangzhou_sushi",
      "city": "杭州",
      "name": "外婆家(西湖银泰店)",
      "type": "正餐",
      "avg_cost_per_person": 70,
      "must_try": ["茶香鸡", "麻婆豆腐", "糖醋排骨"],
      "tags": ["美食", "杭帮菜", "性价比"],
      "address": "杭州市上城区延安路",
      "lat": 30.2500,
      "lng": 120.1650,
      "rating": 4.2
    },
    {
      "id": "hangzhou_snack",
      "city": "杭州",
      "name": "河坊街小吃街",
      "type": "夜市",
      "avg_cost_per_person": 50,
      "must_try": ["葱包桧", "定胜糕", "臭豆腐"],
      "tags": ["美食", "小吃", "夜市"],
      "address": "杭州市上城区河坊街",
      "lat": 30.2450,
      "lng": 120.1700,
      "rating": 4.1
    },
    {
      "id": "hangzhou_longjing_tea",
      "city": "杭州",
      "name": "龙井菜馆(龙井村店)",
      "type": "正餐",
      "avg_cost_per_person": 90,
      "must_try": ["龙井虾仁", "叫花鸡", "西湖莼菜汤"],
      "tags": ["美食", "杭帮菜", "茶园"],
      "address": "杭州市西湖区龙井村",
      "lat": 30.2200,
      "lng": 120.1300,
      "rating": 4.4
    },
    {
      "id": "xiamen_shaochuan",
      "city": "厦门",
      "name": "小眼镜大排档(万佳东方店)",
      "type": "正餐",
      "avg_cost_per_person": 100,
      "must_try": ["酱油水鱿鱼", "清蒸石斑鱼", "炒花蛤"],
      "tags": ["美食", "海鲜", "大排档"],
      "address": "厦门市思明区湖滨中路",
      "lat": 24.4600,
      "lng": 118.1000,
      "rating": 4.5
    },
    {
      "id": "xiamen_tusundong",
      "city": "厦门",
      "name": "黄则和花生汤(中山路店)",
      "type": "小吃",
      "avg_cost_per_person": 20,
      "must_try": ["花生汤", "沙茶面", "烧肉粽"],
      "tags": ["美食", "小吃", "老字号"],
      "address": "厦门市思明区中山路",
      "lat": 24.4620,
      "lng": 118.0820,
      "rating": 4.4
    },
    {
      "id": "xiamen_shachamian",
      "city": "厦门",
      "name": "乌糖沙茶面",
      "type": "小吃",
      "avg_cost_per_person": 30,
      "must_try": ["沙茶面", "加肥肠", "加豆腐"],
      "tags": ["美食", "面食", "老字号"],
      "address": "厦门市思明区民族路",
      "lat": 24.4400,
      "lng": 118.1050,
      "rating": 4.5
    },
    {
      "id": "xiamen_haixian",
      "city": "厦门",
      "name": "202特色大排档",
      "type": "正餐",
      "avg_cost_per_person": 120,
      "must_try": ["龙虾", "螃蟹", "海螺"],
      "tags": ["美食", "海鲜", "聚餐"],
      "address": "厦门市思明区斗西路",
      "lat": 24.4650,
      "lng": 118.0950,
      "rating": 4.3
    },
    {
      "id": "xiamen_tusun",
      "city": "厦门",
      "name": "1980烧肉粽(中山路店)",
      "type": "小吃",
      "avg_cost_per_person": 25,
      "must_try": ["烧肉粽", "炸五香", "扁食汤"],
      "tags": ["美食", "小吃", "老字号"],
      "address": "厦门市思明区中山路",
      "lat": 24.4610,
      "lng": 118.0830,
      "rating": 4.4
    },
    {
      "id": "xiamen_yexiao",
      "city": "厦门",
      "name": "曾厝垵美食街",
      "type": "夜市",
      "avg_cost_per_person": 60,
      "must_try": ["海蛎煎", "土笋冻", "芒果冰"],
      "tags": ["美食", "小吃", "夜市"],
      "address": "厦门市思明区曾厝垵",
      "lat": 24.4250,
      "lng": 118.1300,
      "rating": 4.2
    }
  ]
}
